City_ID,City,Lat,Lng,Max Temp,Humidity,Cloudiness,Wind Speed,Country,Date,Current description,Rain inches(last 3 hrs),Snow inches(last 3 hrs)
0,Albany,41.0,20.0,41.0,93,0,3.36,AL,2020-02-24 23:02:07,fog,0.0,0.0
1,Coquimbo,-29.95,-71.34,64.4,77,20,12.75,CL,2020-02-24 23:02:08,few clouds,0.0,0.0
2,Kenora,49.82,-94.43,30.2,68,20,3.36,CA,2020-02-24 23:02:08,few clouds,0.0,0.0
3,Chokurdakh,70.63,147.92,-21.86,93,18,7.47,RU,2020-02-24 23:02:08,few clouds,0.0,0.0
4,Jacareacanga,-6.22,-57.75,75.87,96,100,4.83,BR,2020-02-24 23:02:08,moderate rain,6.75,0.0
5,Georgetown,5.41,100.34,80.01,69,20,5.82,MY,2020-02-24 23:00:04,few clouds,0.0,0.0
6,Verkhoyansk,67.54,133.38,-18.98,90,69,3.04,RU,2020-02-24 23:02:09,broken clouds,0.0,0.0
7,Impfondo,1.64,18.07,80.01,68,93,3.89,CG,2020-02-24 23:02:09,overcast clouds,0.0,0.0
8,Louisbourg,40.27,-76.88,57.2,26,40,4.7,US,2020-02-24 22:57:36,scattered clouds,0.0,0.0
9,Luderitz,-26.65,15.16,62.6,88,3,4.7,NA,2020-02-24 23:02:10,clear sky,0.0,0.0
10,Mar Del Plata,-38.0,-57.56,69.8,73,75,12.75,AR,2020-02-24 22:58:32,thunderstorm,0.0,0.0
11,Tiksi,71.69,128.87,0.88,82,100,22.41,RU,2020-02-24 23:02:10,light snow,0.0,0.13
12,Lossiemouth,57.72,-3.28,39.2,98,100,2.24,GB,2020-02-24 23:01:59,light snow,0.0,0.0
13,Rikitea,-23.12,-134.97,80.02,64,21,5.53,PF,2020-02-24 23:02:10,few clouds,0.0,0.0
14,Busselton,-33.65,115.33,69.01,55,55,14.34,AU,2020-02-24 23:02:11,broken clouds,0.0,0.0
15,Jamestown,42.1,-79.24,48.2,52,90,4.7,US,2020-02-24 22:57:58,overcast clouds,0.0,0.0
16,Dikson,38.45,-121.82,75.2,15,1,17.22,US,2020-02-24 23:02:11,clear sky,0.0,0.0
17,Bluff,-46.6,168.33,61.3,72,100,4.05,NZ,2020-02-24 23:02:11,light rain,0.13,0.0
18,Punta Arenas,-53.15,-70.92,50.0,57,75,18.34,CL,2020-02-24 22:59:29,broken clouds,0.0,0.0
19,Half Moon Bay,37.46,-122.43,73.99,51,1,3.36,US,2020-02-24 23:02:12,clear sky,0.0,0.0
20,Lompoc,34.64,-120.46,77.0,23,1,10.29,US,2020-02-24 22:58:42,clear sky,0.0,0.0
21,Cidreira,-30.18,-50.21,75.74,82,15,26.28,BR,2020-02-24 22:59:03,few clouds,0.0,0.0
22,Pisco,-13.7,-76.22,78.01,30,31,23.04,PE,2020-02-24 23:02:12,scattered clouds,0.0,0.0
23,Mahebourg,-20.41,57.7,75.99,88,20,3.36,MU,2020-02-24 23:01:04,few clouds,0.0,0.0
24,Port Elizabeth,-33.92,25.57,62.6,88,0,4.7,ZA,2020-02-24 23:02:13,clear sky,0.0,0.0
25,Yulara,-25.24,130.99,77.0,31,59,6.93,AU,2020-02-24 23:02:13,broken clouds,0.0,0.0
26,Pevek,69.7,170.31,-21.23,93,0,6.46,RU,2020-02-24 23:02:13,clear sky,0.0,0.0
27,New Norfolk,-42.78,147.06,69.01,63,20,11.41,AU,2020-02-24 23:02:13,few clouds,0.0,0.0
28,Yellowknife,62.46,-114.35,-2.99,57,20,2.24,CA,2020-02-24 23:00:03,few clouds,0.0,0.0
29,Olafsvik,64.89,-23.71,32.31,64,100,8.08,IS,2020-02-24 23:02:14,light snow,0.0,0.31
30,Constitucion,25.04,-111.66,81.59,16,88,13.49,MX,2020-02-24 23:02:14,overcast clouds,0.0,0.0
31,Kruisfontein,-34.0,24.73,58.77,78,0,7.56,ZA,2020-02-24 23:02:14,clear sky,0.0,0.0
32,Marcona,-15.21,-75.11,72.88,75,75,10.04,PE,2020-02-24 23:02:14,broken clouds,0.0,0.0
33,Galgani,12.45,34.22,72.05,15,10,11.99,SD,2020-02-24 23:02:15,clear sky,0.0,0.0
34,Samarai,-10.62,150.67,86.56,62,95,5.5,PG,2020-02-24 23:02:15,overcast clouds,0.0,0.0
35,Puerto Ayora,-0.74,-90.35,86.0,62,20,16.11,EC,2020-02-24 23:02:15,few clouds,0.0,0.0
36,Praxedis Guerrero,31.37,-106.02,66.99,19,1,9.17,MX,2020-02-24 23:02:15,clear sky,0.0,0.0
37,Atuona,-9.8,-139.03,81.81,72,3,11.25,PF,2020-02-24 23:02:15,clear sky,0.0,0.0
38,Amalapuram,16.58,82.02,71.78,86,0,3.36,IN,2020-02-24 23:02:16,clear sky,0.0,0.0
39,Cherskiy,68.75,161.3,-18.72,85,69,4.21,RU,2020-02-24 23:02:16,broken clouds,0.0,0.0
40,Praia Da Vitoria,38.73,-27.07,59.0,93,20,4.54,PT,2020-02-24 23:02:16,few clouds,0.0,0.0
41,Port Lincoln,-34.73,135.87,68.07,67,1,9.37,AU,2020-02-24 23:02:16,clear sky,0.0,0.0
42,Broome,42.25,-75.83,51.8,60,1,3.22,US,2020-02-24 23:02:17,clear sky,0.0,0.0
43,Cayenne,4.93,-52.33,78.8,83,40,8.05,GF,2020-02-24 22:59:14,scattered clouds,0.0,0.0
44,Asau,46.43,26.4,34.0,79,0,2.24,RO,2020-02-24 23:02:17,clear sky,0.0,0.0
45,Chuy,-33.7,-53.46,70.07,81,0,11.63,UY,2020-02-24 23:02:17,clear sky,0.0,0.0
46,Mataura,-46.19,168.86,58.42,76,100,4.0,NZ,2020-02-24 23:02:17,overcast clouds,0.0,0.0
47,Tasiilaq,65.61,-37.64,12.2,47,95,5.82,GL,2020-02-24 23:02:18,overcast clouds,0.0,0.0
48,Fortuna,40.6,-124.16,62.01,66,1,12.75,US,2020-02-24 22:58:58,clear sky,0.0,0.0
49,Talnakh,69.49,88.4,15.8,92,100,33.55,RU,2020-02-24 23:02:18,light snow,0.0,0.31
50,Great Yarmouth,52.61,1.73,46.0,65,49,17.22,GB,2020-02-24 23:02:18,scattered clouds,0.0,0.0
51,Coxim,-18.51,-54.76,74.39,97,74,2.93,BR,2020-02-24 23:02:18,light rain,0.13,0.0
52,Bilma,18.69,12.92,58.37,20,0,11.12,NE,2020-02-24 23:02:19,clear sky,0.0,0.0
53,Bambous Virieux,-20.34,57.76,75.99,88,20,3.36,MU,2020-02-24 23:02:19,few clouds,0.0,0.0
54,Douglas,41.3,-96.17,46.4,48,1,13.87,US,2020-02-24 23:02:19,clear sky,0.0,0.0
55,Khani,41.96,42.96,48.2,100,90,1.12,GE,2020-02-24 23:02:19,light rain,0.0,0.0
56,Brae,60.4,-1.35,37.4,74,100,12.75,GB,2020-02-24 23:02:19,overcast clouds,0.0,0.0
57,Tarakan,3.3,117.63,77.18,85,38,6.71,ID,2020-02-24 23:02:20,scattered clouds,0.0,0.0
58,Maragogi,-9.01,-35.22,82.31,78,44,13.2,BR,2020-02-24 23:00:50,scattered clouds,0.0,0.0
59,Hithadhoo,-0.6,73.08,83.23,76,73,10.58,MV,2020-02-24 23:01:50,moderate rain,4.38,0.0
60,Illoqqortoormiut,70.48,-21.96,-9.04,53,100,5.95,GL,2020-02-24 23:02:20,overcast clouds,0.0,0.0
61,Guatire,10.48,-66.54,71.01,96,93,8.05,VE,2020-02-24 23:02:21,overcast clouds,0.0,0.0
62,Port Alfred,-33.59,26.89,62.01,88,0,3.0,ZA,2020-02-24 23:02:21,clear sky,0.0,0.0
63,Slavutych,51.52,30.73,32.05,81,1,10.38,UA,2020-02-24 23:02:21,clear sky,0.0,0.0
64,Ushuaia,-54.8,-68.3,44.6,81,75,38.03,AR,2020-02-24 23:02:21,light intensity drizzle,0.0,0.0
65,Bagacay,13.95,122.24,76.66,82,67,8.19,PH,2020-02-24 23:02:22,broken clouds,0.0,0.0
66,Dubrovytsya,51.57,26.57,32.99,86,40,7.65,UA,2020-02-24 23:02:22,scattered clouds,0.0,0.0
67,Klaksvik,62.23,-6.59,37.4,69,100,17.22,FO,2020-02-24 23:02:22,overcast clouds,0.0,0.0
68,Vaini,-21.2,-175.2,86.0,79,20,6.93,TO,2020-02-24 23:02:22,few clouds,0.0,0.0
69,Mazatlan,23.22,-106.42,80.6,47,75,11.41,MX,2020-02-24 22:58:30,broken clouds,0.0,0.0
70,Tuatapere,-46.13,167.68,56.32,97,100,1.92,NZ,2020-02-24 23:02:23,light rain,1.44,0.0
71,Bethel,40.66,-73.61,54.0,57,1,15.77,US,2020-02-24 22:59:03,clear sky,0.0,0.0
72,Bam,13.5,-1.67,75.58,12,85,12.66,BF,2020-02-24 23:02:24,overcast clouds,0.0,0.0
73,Bundaberg,-24.85,152.35,84.99,88,75,12.75,AU,2020-02-24 23:02:24,light rain,0.0,0.0
74,Lewistown,40.6,-77.57,55.99,37,75,1.86,US,2020-02-24 23:02:24,broken clouds,0.0,0.0
75,Sedro-Woolley,48.5,-122.24,46.99,61,90,4.7,US,2020-02-24 23:02:24,overcast clouds,0.0,0.0
76,Conakry,9.57,-13.65,79.03,81,79,3.27,GN,2020-02-24 23:02:24,broken clouds,0.0,0.0
77,Suntar,62.14,117.63,7.61,93,52,6.02,RU,2020-02-24 23:02:25,broken clouds,0.0,0.0
78,Karaul,37.22,68.78,52.12,72,67,5.88,AF,2020-02-24 23:02:25,broken clouds,0.0,0.0
79,Maceio,-9.67,-35.74,80.6,83,40,8.05,BR,2020-02-24 23:02:25,scattered clouds,0.0,0.0
80,Udachnyy,66.42,112.4,5.0,92,2,6.71,RU,2020-02-24 23:02:25,clear sky,0.0,0.0
81,Hannan,34.32,135.23,48.2,70,75,8.05,JP,2020-02-24 23:02:26,broken clouds,0.0,0.0
82,Mainit,7.53,126.02,77.0,88,90,6.93,PH,2020-02-24 23:02:26,overcast clouds,0.0,0.0
83,Port Macquarie,-31.43,152.92,80.01,88,75,2.24,AU,2020-02-24 23:02:26,broken clouds,0.0,0.0
84,Hermanus,-34.42,19.23,66.0,69,0,8.99,ZA,2020-02-24 23:02:26,clear sky,0.0,0.0
85,Touros,-5.2,-35.46,82.4,78,40,8.05,BR,2020-02-24 23:02:27,scattered clouds,0.0,0.0
86,Baykit,61.67,96.37,-3.06,98,54,1.21,RU,2020-02-24 23:02:27,broken clouds,0.0,0.0
87,Viedma,-40.81,-63.0,59.86,61,71,7.4,AR,2020-02-24 23:01:21,broken clouds,0.0,0.0
88,Barrow,54.12,-3.23,42.01,2,67,15.99,GB,2020-02-24 23:02:27,light rain,0.19,0.0
89,Kodiak,57.79,-152.41,33.8,69,90,31.09,US,2020-02-24 23:02:28,light snow,0.0,0.0
90,Antofagasta,-23.65,-70.4,68.0,77,40,13.87,CL,2020-02-24 23:00:37,scattered clouds,0.0,0.0
91,Petropavlovsk-Kamchatskiy,53.05,158.65,23.0,57,100,2.24,RU,2020-02-24 23:02:28,overcast clouds,0.0,0.0
92,Hobart,-42.88,147.33,68.0,63,20,11.41,AU,2020-02-24 22:59:06,few clouds,0.0,0.0
93,Nikolskoye,59.7,30.79,32.0,64,3,11.18,RU,2020-02-24 23:02:28,clear sky,0.0,0.0
94,Narragansett,41.43,-71.46,50.0,70,1,9.17,US,2020-02-24 22:59:34,clear sky,0.0,0.0
95,Beboto,8.27,16.94,73.9,17,1,6.15,TD,2020-02-24 23:02:29,clear sky,0.0,0.0
96,Victoria,22.29,114.16,70.0,77,20,5.82,HK,2020-02-24 22:59:01,few clouds,0.0,0.0
97,Tyukhtet,56.54,89.3,5.58,95,15,5.84,RU,2020-02-24 23:02:29,few clouds,0.0,0.0
98,Cape Town,-33.93,18.42,68.0,77,0,6.93,ZA,2020-02-24 22:58:41,clear sky,0.0,0.0
99,Avarua,-21.21,-159.78,86.0,84,100,5.82,CK,2020-02-24 23:02:30,light rain,0.88,0.0
100,Saskylakh,71.92,114.08,15.21,87,100,16.04,RU,2020-02-24 23:02:30,overcast clouds,0.0,0.0
101,Padang,-0.95,100.35,70.11,88,7,5.37,ID,2020-02-24 23:02:30,clear sky,0.0,0.0
102,Sao Joao Da Barra,-21.64,-41.05,77.0,78,100,8.16,BR,2020-02-24 23:02:30,overcast clouds,0.0,0.0
103,San Francisco,37.77,-122.42,75.0,31,1,9.17,US,2020-02-24 23:01:56,light rain,0.0,0.0
104,Necochea,-38.55,-58.74,64.99,51,95,1.99,AR,2020-02-24 22:58:26,overcast clouds,0.0,0.0
105,Anchorage,61.17,-149.25,18.0,61,1,4.7,US,2020-02-24 23:00:07,clear sky,0.0,0.0
106,Castro,-24.79,-50.01,63.86,98,10,5.44,BR,2020-02-24 23:00:19,light rain,2.31,0.0
107,Arraial Do Cabo,-22.97,-42.03,73.4,88,75,4.7,BR,2020-02-24 23:01:52,broken clouds,0.0,0.0
108,Narsaq,60.92,-46.05,12.2,36,0,4.7,GL,2020-02-24 23:02:32,clear sky,0.0,0.0
109,Kahului,20.89,-156.47,80.6,65,20,18.34,US,2020-02-24 23:02:32,few clouds,0.0,0.0
110,Bilibino,68.05,166.44,-20.27,86,0,2.21,RU,2020-02-24 23:02:32,clear sky,0.0,0.0
111,Okhotsk,59.38,143.3,-8.63,73,0,10.78,RU,2020-02-24 23:02:32,clear sky,0.0,0.0
112,Qaanaaq,77.48,-69.36,-17.28,48,33,7.31,GL,2020-02-24 23:02:32,scattered clouds,0.0,0.0
113,Comodoro Rivadavia,-45.87,-67.5,62.6,72,75,14.99,AR,2020-02-24 22:59:19,light intensity shower rain,0.0,0.0
114,Tsihombe,-25.3,45.48,69.22,78,84,10.33,MG,2020-02-24 23:02:33,broken clouds,0.0,0.0
115,Saint George,8.48,-13.23,75.47,82,87,3.71,SL,2020-02-24 23:02:33,overcast clouds,0.0,0.0
116,Severo-Kurilsk,50.68,156.12,24.03,83,100,12.21,RU,2020-02-24 23:02:33,overcast clouds,0.0,0.0
117,Benguela,-12.58,13.41,78.82,77,69,3.02,AO,2020-02-24 23:02:35,broken clouds,0.0,0.0
118,Iqaluit,63.75,-68.51,-20.0,68,20,3.53,CA,2020-02-24 22:59:28,few clouds,0.0,0.0
119,Hilo,19.73,-155.09,82.4,54,20,12.75,US,2020-02-24 22:58:37,few clouds,0.0,0.0
120,Burnie,-41.07,145.92,64.99,64,17,5.01,AU,2020-02-24 23:02:35,few clouds,0.0,0.0
121,Tuktoyaktuk,69.45,-133.04,-14.8,75,75,6.93,CA,2020-02-24 23:02:36,broken clouds,0.0,0.0
122,Rock Springs,41.59,-109.2,24.8,58,1,28.86,US,2020-02-24 23:02:36,clear sky,0.0,0.0
123,Butaritari,3.07,172.79,84.33,78,34,16.28,KI,2020-02-24 23:02:36,moderate rain,3.56,0.0
124,Ayr,55.46,-4.63,37.4,86,75,11.41,GB,2020-02-24 23:02:36,broken clouds,0.0,0.0
125,Isiolo,0.35,37.58,74.03,52,100,4.14,KE,2020-02-24 23:02:36,overcast clouds,0.0,0.0
126,Mogadishu,2.04,45.34,81.63,84,93,21.54,SO,2020-02-24 23:01:08,overcast clouds,0.0,0.0
127,Goma,-1.68,29.22,57.34,96,99,1.01,CD,2020-02-24 23:02:37,light rain,0.69,0.0
128,Haines Junction,60.75,-137.51,0.45,88,43,4.68,CA,2020-02-24 23:02:37,scattered clouds,0.0,0.0
129,Santa Fe,-31.63,-60.7,82.99,50,0,1.99,AR,2020-02-24 23:01:21,clear sky,0.0,0.0
130,Santa Lucia,-19.77,-43.85,73.4,78,75,5.82,BR,2020-02-24 23:02:37,broken clouds,0.0,0.0
131,Salym,31.77,35.22,55.4,82,75,2.24,IL,2020-02-24 23:02:28,broken clouds,0.0,0.0
132,Luau,-10.71,22.22,67.26,96,100,2.46,AO,2020-02-24 23:02:38,light rain,0.25,0.0
133,Kudahuvadhoo,2.67,72.89,82.85,78,94,16.15,MV,2020-02-24 23:02:38,overcast clouds,0.0,0.0
134,Komsomolskiy,40.43,71.72,48.2,76,40,9.17,UZ,2020-02-24 23:02:38,scattered clouds,0.0,0.0
135,Torbay,47.67,-52.73,27.0,86,20,5.82,CA,2020-02-24 23:02:38,fog,0.0,0.0
136,Coihaique,-45.58,-72.07,59.0,54,75,10.29,CL,2020-02-24 23:02:39,broken clouds,0.0,0.0
137,Bredasdorp,-34.53,20.04,66.0,77,0,10.29,ZA,2020-02-24 23:02:39,clear sky,0.0,0.0
138,Kholmogory,64.22,41.66,30.2,80,90,2.24,RU,2020-02-24 23:02:39,overcast clouds,0.0,0.0
139,Altay,47.87,88.12,9.3,73,77,2.57,CN,2020-02-24 23:02:39,broken clouds,0.0,0.0
140,Venado Tuerto,-33.75,-61.97,73.0,68,9,8.01,AR,2020-02-24 23:02:39,clear sky,0.0,0.0
141,Saint-Pierre,-21.34,55.48,78.8,65,6,4.7,RE,2020-02-24 23:02:40,clear sky,0.0,0.0
142,Trinidad,-14.83,-64.9,82.4,69,75,3.42,BO,2020-02-24 23:02:40,broken clouds,0.0,0.0
143,Puerto Quijarro,-17.78,-57.77,75.22,94,6,4.99,BO,2020-02-24 23:02:40,clear sky,0.0,0.0
144,Vao,-22.67,167.48,78.94,76,100,17.9,NC,2020-02-24 23:02:40,overcast clouds,0.0,0.0
145,Krasnoselkup,65.7,82.47,10.58,89,92,20.13,RU,2020-02-24 23:02:40,overcast clouds,0.0,0.0
146,Ntcheu,-14.82,34.64,63.1,94,100,11.01,MW,2020-02-24 23:02:41,overcast clouds,0.0,0.0
147,Te Anau,-45.42,167.72,56.7,84,100,3.87,NZ,2020-02-24 23:02:41,light rain,0.63,0.0
148,Norman Wells,65.28,-126.83,-0.4,70,90,8.05,CA,2020-02-24 23:02:41,light snow,0.0,0.0
149,Telford,52.68,-2.45,43.0,80,15,8.05,GB,2020-02-24 23:02:41,few clouds,0.0,0.0
150,Plettenberg Bay,-34.05,23.37,63.77,79,0,1.21,ZA,2020-02-24 23:02:42,clear sky,0.0,0.0
151,George Town,5.41,100.34,80.01,69,20,5.82,MY,2020-02-24 23:00:04,few clouds,0.0,0.0
152,Dingli,35.86,14.38,57.0,93,20,8.05,MT,2020-02-24 23:02:42,few clouds,0.0,0.0
153,Huarmey,-10.07,-78.15,76.89,61,62,5.5,PE,2020-02-24 23:02:42,broken clouds,0.0,0.0
154,Ambilobe,-13.2,49.05,78.15,88,96,2.53,MG,2020-02-24 23:02:42,light rain,1.5,0.0
155,Shingu,33.73,135.98,51.8,71,75,2.24,JP,2020-02-24 23:02:43,broken clouds,0.0,0.0
156,Claudio,-20.44,-44.77,67.95,99,100,5.88,BR,2020-02-24 23:02:43,heavy intensity rain,16.38,0.0
157,Kapaa,22.08,-159.32,82.4,69,20,16.11,US,2020-02-24 23:02:43,few clouds,0.0,0.0
158,Tecoanapa,16.52,-98.75,81.57,64,0,7.56,MX,2020-02-24 23:02:43,clear sky,0.0,0.0
159,Roald,62.58,6.13,33.8,80,40,14.99,NO,2020-02-24 23:02:44,scattered clouds,0.0,0.0
160,Luxor,25.7,32.64,51.8,71,0,11.74,EG,2020-02-24 23:02:44,clear sky,0.0,0.0
161,Berlevag,70.86,29.09,30.2,86,75,14.99,NO,2020-02-24 23:02:44,light shower snow,0.0,0.0
162,Marathon,44.9,-89.77,41.0,51,40,3.36,US,2020-02-24 23:02:44,moderate rain,0.0,0.0
163,Kaitangata,-46.28,169.85,71.01,51,98,11.81,NZ,2020-02-24 23:02:44,overcast clouds,0.0,0.0
164,Scarborough,54.28,-0.4,42.01,80,44,18.34,GB,2020-02-24 23:02:45,scattered clouds,0.0,0.0
165,Bengkulu,-3.8,102.27,73.26,92,100,4.21,ID,2020-02-24 23:02:45,overcast clouds,0.0,0.0
166,Saint-Augustin,51.23,-58.65,28.33,97,100,11.3,CA,2020-02-24 23:02:45,light snow,0.0,0.88
167,Ambon,-3.7,128.18,82.78,78,84,5.64,ID,2020-02-24 22:59:51,broken clouds,0.0,0.0
168,Eureka,40.8,-124.16,55.99,66,1,12.75,US,2020-02-24 22:59:58,clear sky,0.0,0.0
169,Ribeira Grande,38.52,-28.7,56.98,78,32,2.46,PT,2020-02-24 23:02:46,scattered clouds,0.0,0.0
170,Wajir,1.75,40.06,82.17,54,82,11.65,KE,2020-02-24 23:02:46,broken clouds,0.0,0.0
171,Kerman,30.28,57.08,42.8,38,14,4.7,IR,2020-02-24 23:02:46,few clouds,0.0,0.0
172,Jiayuguan,39.82,98.3,31.6,40,67,8.48,CN,2020-02-24 23:02:47,broken clouds,0.0,0.0
173,Lorengau,-2.02,147.27,84.15,71,21,3.2,PG,2020-02-24 23:02:47,few clouds,0.0,0.0
174,Vila Velha,-20.33,-40.29,78.8,78,75,5.82,BR,2020-02-24 23:00:13,broken clouds,0.0,0.0
175,Faanui,-16.48,-151.75,83.28,72,58,9.66,PF,2020-02-24 23:02:47,light rain,0.13,0.0
176,Ileza,61.05,43.9,27.32,97,95,4.94,RU,2020-02-24 23:02:47,light snow,0.0,0.13
177,Goure,13.98,10.27,70.0,24,0,8.99,NE,2020-02-24 23:02:48,clear sky,0.0,0.0
178,Tessalit,20.2,1.01,66.78,15,20,14.58,ML,2020-02-24 23:02:48,few clouds,0.0,0.0
179,Lebu,-37.62,-73.65,55.87,78,0,7.61,CL,2020-02-24 23:02:48,clear sky,0.0,0.0
180,Fort Nelson,58.81,-122.7,17.6,61,75,0.09,CA,2020-02-24 23:00:12,broken clouds,0.0,0.0
181,Uyovu,-3.28,31.53,65.46,96,100,9.31,TZ,2020-02-24 23:02:48,light rain,1.06,0.0
182,Ocala,29.19,-82.14,77.0,53,40,9.17,US,2020-02-24 23:00:08,scattered clouds,0.0,0.0
183,Port Blair,11.67,92.75,80.78,76,84,13.29,IN,2020-02-24 23:02:49,broken clouds,0.0,0.0
184,Longyearbyen,78.22,15.64,1.4,84,40,3.36,SJ,2020-02-24 23:02:49,light snow,0.0,0.0
185,Bargal,11.29,51.08,65.55,79,43,2.46,SO,2020-02-24 23:02:49,scattered clouds,0.0,0.0
186,Salalah,17.02,54.09,75.2,78,75,2.24,OM,2020-02-24 23:02:49,broken clouds,0.0,0.0
187,Richards Bay,-28.78,32.04,74.35,63,99,9.19,ZA,2020-02-24 23:02:50,light rain,0.13,0.0
188,Najran,17.49,44.13,71.6,30,0,5.99,SA,2020-02-24 23:02:50,clear sky,0.0,0.0
189,Almaty,43.25,76.95,35.6,100,75,3.18,KZ,2020-02-24 23:02:50,mist,0.0,0.0
190,Taolanaro,-25.03,47.0,75.2,88,75,4.7,MG,2020-02-24 23:02:50,broken clouds,0.0,0.0
191,Zhanatas,43.57,69.75,38.95,85,100,3.91,KZ,2020-02-24 23:02:50,overcast clouds,0.0,0.0
192,Hovd,48.01,91.64,6.8,74,2,0.2,MN,2020-02-24 23:02:51,clear sky,0.0,0.0
193,Esperance,-33.87,121.9,64.4,88,100,8.05,AU,2020-02-24 23:02:51,overcast clouds,0.0,0.0
194,Sitka,57.05,-135.33,35.6,69,75,9.17,US,2020-02-24 23:02:51,broken clouds,0.0,0.0
195,Ordzhonikidze,43.04,44.67,39.97,52,38,5.12,RU,2020-02-24 23:02:51,scattered clouds,0.0,0.0
196,Honiara,-9.43,159.95,86.0,74,20,4.12,SB,2020-02-24 23:02:51,few clouds,0.0,0.0
197,Kavieng,-2.57,150.8,84.25,69,47,2.66,PG,2020-02-24 23:02:52,scattered clouds,0.0,0.0
198,Port Hawkesbury,45.62,-61.35,36.0,86,1,3.36,CA,2020-02-24 23:02:52,clear sky,0.0,0.0
199,Margate,51.38,1.39,48.99,76,90,16.11,GB,2020-02-24 23:02:52,overcast clouds,0.0,0.0
200,Saint-Joseph,-21.37,55.62,78.8,65,6,4.7,RE,2020-02-24 23:02:52,clear sky,0.0,0.0
201,Joensuu,62.6,29.76,30.0,86,75,13.87,FI,2020-02-24 23:02:53,broken clouds,0.0,0.0
202,Botro,7.85,-5.31,87.8,33,92,0.31,CI,2020-02-24 23:02:53,overcast clouds,0.0,0.0
203,Yerkoy,39.64,34.47,35.06,72,98,10.2,TR,2020-02-24 23:02:53,light snow,0.0,0.13
204,Ostrovnoy,68.05,39.51,27.82,99,100,7.09,RU,2020-02-24 23:02:53,light snow,0.0,0.5
205,Mayya,61.73,130.28,-11.2,76,95,2.24,RU,2020-02-24 23:02:54,light snow,0.0,0.0
206,Tahoua,14.89,5.27,63.39,19,56,12.33,NE,2020-02-24 23:02:54,broken clouds,0.0,0.0
207,Banihal,33.42,75.2,25.84,84,0,7.23,IN,2020-02-24 23:02:54,clear sky,0.0,0.0
208,Batagay,67.63,134.63,-19.37,87,25,4.41,RU,2020-02-24 23:02:54,scattered clouds,0.0,0.0
209,Taltal,-25.4,-70.48,63.28,82,1,3.4,CL,2020-02-24 23:02:54,clear sky,0.0,0.0
210,Zaoyang,32.13,112.75,56.66,80,67,5.26,CN,2020-02-24 23:02:55,broken clouds,0.0,0.0
211,Ponta Do Sol,32.67,-17.1,70.0,77,20,16.11,PT,2020-02-24 23:02:55,few clouds,0.0,0.0
212,Topolobampo,25.6,-109.05,73.99,49,90,19.46,MX,2020-02-24 22:59:12,overcast clouds,0.0,0.0
213,Boa Vista,2.82,-60.67,87.8,55,100,6.93,BR,2020-02-24 22:58:43,overcast clouds,0.0,0.0
214,Eastbourne,50.77,0.28,48.0,87,100,12.75,GB,2020-02-24 23:02:56,overcast clouds,0.0,0.0
215,Rio Cuarto,-33.13,-64.35,78.8,54,15,10.29,AR,2020-02-24 23:02:56,few clouds,0.0,0.0
216,Magadan,59.57,150.8,-0.6,73,38,7.67,RU,2020-02-24 23:02:56,scattered clouds,0.0,0.0
217,Ixtapa,20.7,-105.2,78.8,74,40,14.99,MX,2020-02-24 23:02:56,scattered clouds,0.0,0.0
218,Saldanha,-33.01,17.94,71.35,48,0,6.24,ZA,2020-02-24 23:02:56,clear sky,0.0,0.0
219,Saint-Leu,-21.15,55.28,78.8,65,38,4.7,RE,2020-02-24 23:02:57,scattered clouds,0.0,0.0
220,Tagusao,9.19,117.81,77.94,75,93,2.53,PH,2020-02-24 23:02:57,overcast clouds,0.0,0.0
221,Roma,34.26,-85.16,48.2,100,75,5.03,US,2020-02-24 22:59:09,moderate rain,0.0,0.0
222,Kokstad,-30.55,29.42,49.86,94,4,2.48,ZA,2020-02-24 23:02:57,clear sky,0.0,0.0
223,Pochinok,54.41,32.44,29.64,76,0,10.76,RU,2020-02-24 23:02:57,clear sky,0.0,0.0
224,Nuuk,64.18,-51.72,10.4,72,75,10.29,GL,2020-02-24 23:02:58,light shower snow,0.0,0.0
225,Upernavik,72.79,-56.15,-19.93,78,1,1.66,GL,2020-02-24 23:02:58,clear sky,0.0,0.0
226,Cap Malheureux,-19.98,57.61,75.99,88,20,3.36,MU,2020-02-24 23:02:58,few clouds,0.0,0.0
227,Villa Carlos Paz,-31.42,-64.5,82.0,65,20,6.93,AR,2020-02-24 23:02:58,few clouds,0.0,0.0
228,Yurimaguas,-5.9,-76.08,48.2,100,40,3.36,PE,2020-02-24 23:02:58,scattered clouds,0.0,0.0
229,Khatanga,71.97,102.5,16.0,76,100,19.57,RU,2020-02-24 23:02:59,overcast clouds,0.0,0.0
230,Valley City,46.92,-98.0,33.8,93,1,4.7,US,2020-02-24 23:02:59,clear sky,0.0,0.0
231,Tahe,52.33,124.73,8.08,85,0,3.74,CN,2020-02-24 23:02:59,clear sky,0.0,0.0
232,Taoudenni,22.68,-3.98,66.22,17,84,11.16,ML,2020-02-24 23:02:59,broken clouds,0.0,0.0
233,Ulladulla,-35.35,150.47,77.0,73,0,4.7,AU,2020-02-24 23:03:00,clear sky,0.0,0.0
234,Vardo,70.37,31.11,30.2,80,40,4.7,NO,2020-02-24 23:03:00,shower rain,0.0,0.0
235,Sens,48.17,3.33,50.0,81,75,17.22,FR,2020-02-24 23:03:00,broken clouds,0.0,0.0
236,Bria,6.54,21.99,71.42,29,61,1.48,CF,2020-02-24 23:03:00,broken clouds,0.0,0.0
237,Buin,-33.73,-70.75,73.4,38,90,6.93,CL,2020-02-24 23:03:00,overcast clouds,0.0,0.0
238,Ilulissat,69.22,-51.1,5.0,71,99,13.87,GL,2020-02-24 23:03:01,light snow,0.0,0.0
239,Naze,28.37,129.48,66.2,82,20,12.75,JP,2020-02-24 23:03:01,few clouds,0.0,0.0
240,Kimbe,-5.55,150.14,88.09,62,37,2.37,PG,2020-02-24 23:03:01,scattered clouds,0.0,0.0
241,Noumea,-22.28,166.46,82.99,58,20,3.36,NC,2020-02-24 23:03:01,few clouds,0.0,0.0
242,Timra,62.49,17.33,28.99,85,0,4.7,SE,2020-02-24 23:03:01,clear sky,0.0,0.0
243,Byron Bay,-28.65,153.62,72.0,88,90,1.12,AU,2020-02-24 23:03:02,overcast clouds,0.0,0.0
244,Puerto Colombia,10.99,-74.95,80.6,69,20,18.34,CO,2020-02-24 23:03:02,few clouds,0.0,0.0
245,Suleja,9.18,7.18,82.4,28,18,8.05,NG,2020-02-24 23:03:02,few clouds,0.0,0.0
246,Skibbereen,51.55,-9.27,35.6,93,20,11.41,IE,2020-02-24 23:03:02,few clouds,0.0,0.0
247,Catalina,32.51,-110.92,68.0,39,1,3.36,US,2020-02-24 22:59:33,clear sky,0.0,0.0
248,Danesti,46.52,25.75,30.99,34,12,3.87,RO,2020-02-24 23:03:03,few clouds,0.0,0.0
249,Port-Gentil,-0.72,8.78,82.4,94,20,4.7,GA,2020-02-24 23:01:09,few clouds,0.0,0.0
250,Raga,8.46,25.68,71.44,17,59,6.98,SS,2020-02-24 23:03:03,broken clouds,0.0,0.0
251,Cam Ranh,11.92,109.16,75.2,83,20,4.7,VN,2020-02-24 23:03:03,few clouds,0.0,0.0
252,Jacobina,-11.18,-40.52,72.79,75,40,4.5,BR,2020-02-24 23:03:04,scattered clouds,0.0,0.0
253,Chicama,-7.84,-79.15,75.2,83,40,8.05,PE,2020-02-24 23:03:04,mist,0.0,0.0
254,Mackay,-21.15,149.2,82.0,88,75,8.05,AU,2020-02-24 23:03:04,broken clouds,0.0,0.0
255,Malanville,11.87,3.39,75.04,15,0,12.55,BJ,2020-02-24 23:03:04,clear sky,0.0,0.0
256,Martil,35.62,-5.28,59.0,93,0,1.12,MA,2020-02-24 23:03:04,clear sky,0.0,0.0
257,General Jose Eduvigis Diaz,-27.17,-58.42,84.2,48,9,4.7,PY,2020-02-24 23:03:05,clear sky,0.0,0.0
258,Bonthe,7.53,-12.51,80.65,79,99,7.61,SL,2020-02-24 23:03:05,overcast clouds,0.0,0.0
259,Krasnyy Chikoy,50.36,108.75,-4.04,95,80,1.95,RU,2020-02-24 22:59:40,broken clouds,0.0,0.0
260,Cabo San Lucas,22.89,-109.91,73.4,60,75,11.41,MX,2020-02-24 23:00:12,broken clouds,0.0,0.0
261,Clyde River,70.47,-68.59,-14.8,68,40,18.34,CA,2020-02-24 23:03:05,scattered clouds,0.0,0.0
262,Escanaba,45.75,-87.06,42.01,55,1,8.48,US,2020-02-24 23:03:06,clear sky,0.0,0.0
263,Ahipara,-35.17,173.17,84.99,64,0,5.01,NZ,2020-02-24 23:03:06,clear sky,0.0,0.0
264,Krasnoarmeyskoye,48.28,37.18,32.63,93,100,28.27,UA,2020-02-24 23:02:35,snow,0.0,1.88
265,Taburi,8.68,117.34,80.92,75,95,17.58,PH,2020-02-24 23:03:07,overcast clouds,0.0,0.0
266,Dakar,14.69,-17.44,77.0,50,98,17.22,SN,2020-02-24 23:03:07,dust,0.0,0.0
267,Shibetsu,43.66,145.13,21.22,78,0,0.65,JP,2020-02-24 23:03:07,clear sky,0.0,0.0
268,Hay River,60.82,-115.8,-9.4,63,20,8.05,CA,2020-02-24 23:00:29,few clouds,0.0,0.0
269,Alofi,-19.06,-169.92,84.2,79,75,8.05,NU,2020-02-24 23:03:07,broken clouds,0.0,0.0
270,Yanan,36.6,109.49,36.27,42,0,1.86,CN,2020-02-24 23:03:08,clear sky,0.0,0.0
271,Port Keats,-14.25,129.55,88.74,66,100,15.61,AU,2020-02-24 23:03:08,overcast clouds,0.0,0.0
272,Vallenar,-28.57,-70.76,58.5,84,0,3.27,CL,2020-02-24 23:01:02,clear sky,0.0,0.0
273,Kawalu,-7.38,108.21,73.53,87,98,2.44,ID,2020-02-24 23:03:08,light rain,0.19,0.0
274,Provideniya,64.38,-173.3,14.0,85,90,6.71,RU,2020-02-24 23:03:08,snow,0.0,0.0
275,Tutoia,-2.76,-42.27,76.37,95,100,6.08,BR,2020-02-24 23:03:09,moderate rain,3.38,0.0
276,Aswan,24.09,32.91,48.42,65,0,8.86,EG,2020-02-24 22:58:47,clear sky,0.0,0.0
277,Vila,42.03,-8.16,57.0,87,75,1.12,PT,2020-02-24 23:03:09,broken clouds,0.0,0.0
278,Smithers,54.78,-127.17,32.0,86,40,2.24,CA,2020-02-24 23:00:18,scattered clouds,0.0,0.0
279,Salinopolis,-0.61,-47.36,81.57,83,68,15.75,BR,2020-02-24 23:03:09,light rain,0.69,0.0
280,Palmas,28.1,-15.41,78.01,23,48,2.24,ES,2020-02-24 23:03:10,scattered clouds,0.0,0.0
281,Bugulma,54.55,52.8,29.79,92,92,6.67,RU,2020-02-24 23:03:10,overcast clouds,0.0,0.0
282,Vila Real De Santo Antonio,37.2,-7.42,55.99,76,0,3.36,PT,2020-02-24 23:03:10,clear sky,0.0,0.0
283,Itaituba,-4.28,-55.98,76.73,96,100,1.79,BR,2020-02-24 23:03:10,light rain,0.38,0.0
284,Herat,34.5,62.0,51.71,44,13,11.25,AF,2020-02-24 23:03:11,few clouds,0.0,0.0
285,Lopandino,52.47,34.82,30.51,77,64,13.35,RU,2020-02-24 23:03:11,broken clouds,0.0,0.0
286,Fershampenuaz,53.52,59.81,17.15,97,73,7.61,RU,2020-02-24 23:03:11,broken clouds,0.0,0.0
287,Yerbogachen,61.28,108.01,3.38,96,76,7.07,RU,2020-02-24 23:03:11,broken clouds,0.0,0.0
288,Tocache,-8.18,-76.51,68.85,97,44,2.46,PE,2020-02-24 23:03:11,light rain,1.0,0.0
289,Katsuura,35.13,140.3,50.0,66,63,12.86,JP,2020-02-24 23:03:12,broken clouds,0.0,0.0
290,Mehamn,71.04,27.85,30.2,73,40,13.87,NO,2020-02-24 23:03:12,scattered clouds,0.0,0.0
291,Batemans Bay,-35.72,150.18,73.99,80,1,4.0,AU,2020-02-24 23:03:12,clear sky,0.0,0.0
292,Peniche,39.36,-9.38,53.6,81,20,12.75,PT,2020-02-24 23:03:12,few clouds,0.0,0.0
293,Ballymena,54.86,-6.28,39.2,93,75,6.93,GB,2020-02-24 23:03:13,broken clouds,0.0,0.0
294,Airai,7.37,134.52,80.6,78,75,12.75,PW,2020-02-24 23:03:13,broken clouds,0.0,0.0
295,Mount Gambier,-37.83,140.77,64.4,77,75,9.17,AU,2020-02-24 23:03:13,broken clouds,0.0,0.0
296,Fukue,32.69,128.84,59.0,82,90,11.41,JP,2020-02-24 23:03:13,overcast clouds,0.0,0.0
297,Rybachiy,44.67,37.79,41.0,65,75,24.61,RU,2020-02-24 23:03:13,broken clouds,0.0,0.0
298,Walvis Bay,-22.96,14.51,70.0,83,7,3.36,NA,2020-02-24 22:58:19,clear sky,0.0,0.0
299,Buala,-8.14,159.59,85.01,69,13,4.25,SB,2020-02-24 23:03:14,few clouds,0.0,0.0
300,Thinadhoo,0.53,72.93,82.65,81,78,14.34,MV,2020-02-24 23:03:14,light rain,1.38,0.0
301,Kokopo,-4.35,152.26,82.8,77,33,7.14,PG,2020-02-24 23:03:14,scattered clouds,0.0,0.0
302,Aklavik,68.22,-135.01,-2.2,77,20,3.36,CA,2020-02-24 23:03:14,few clouds,0.0,0.0
303,Hwange,-18.37,26.5,64.71,87,100,6.69,ZW,2020-02-24 23:03:15,overcast clouds,0.0,0.0
304,Tazovskiy,67.47,78.7,20.89,87,100,22.37,RU,2020-02-24 23:03:15,light snow,0.0,0.13
305,Camacha,33.08,-16.33,64.4,88,20,11.41,PT,2020-02-24 23:03:15,few clouds,0.0,0.0
306,Xuddur,4.12,43.89,72.52,78,90,13.06,SO,2020-02-24 23:03:15,overcast clouds,0.0,0.0
307,Saint-Philippe,-21.36,55.77,78.8,65,35,4.7,RE,2020-02-24 23:03:15,scattered clouds,0.0,0.0
308,Beringovskiy,63.05,179.32,-5.89,97,100,13.56,RU,2020-02-24 23:03:16,light snow,0.0,1.0
309,Nambour,-26.63,152.95,77.0,97,55,3.0,AU,2020-02-24 23:00:58,light rain,2.31,0.0
310,Vestmannaeyjar,63.44,-20.27,38.05,55,99,8.25,IS,2020-02-24 23:03:05,light snow,0.0,0.44
311,Acarau,-2.89,-40.12,76.01,94,71,4.88,BR,2020-02-24 23:03:16,light rain,1.94,0.0
312,Poli,-3.33,36.8,70.16,81,100,2.1,TZ,2020-02-24 22:59:54,overcast clouds,0.0,0.0
313,East London,-33.02,27.91,65.46,77,0,7.23,ZA,2020-02-24 23:03:17,clear sky,0.0,0.0
314,Matara,5.95,80.54,71.83,93,6,4.88,LK,2020-02-24 23:03:17,clear sky,0.0,0.0
315,Almeirim,-1.52,-52.58,76.78,94,100,5.32,BR,2020-02-24 23:01:45,light rain,0.88,0.0
316,Ofunato,39.07,141.72,41.0,52,40,4.7,JP,2020-02-24 23:03:18,scattered clouds,0.0,0.0
317,Toora-Khem,52.47,96.11,0.01,99,99,1.68,RU,2020-02-24 23:03:18,overcast clouds,0.0,0.0
318,North Bend,43.41,-124.22,55.0,46,90,3.36,US,2020-02-24 23:03:18,overcast clouds,0.0,0.0
319,Kysyl-Syr,63.9,122.76,1.65,98,100,3.42,RU,2020-02-24 23:03:18,overcast clouds,0.0,0.0
320,Sao Miguel Do Oeste,-26.73,-53.52,77.0,99,0,4.59,BR,2020-02-24 23:01:22,light rain,0.13,0.0
321,Pangnirtung,66.15,-65.71,-25.6,67,20,2.24,CA,2020-02-24 23:03:19,few clouds,0.0,0.0
322,Gamba,-2.65,10.0,78.13,91,96,3.78,GA,2020-02-24 23:03:19,light rain,2.06,0.0
323,Marzuq,25.92,13.92,50.23,37,0,3.89,LY,2020-02-24 23:03:01,clear sky,0.0,0.0
324,Lichtenburg,-26.15,26.16,59.65,78,97,4.47,ZA,2020-02-24 23:03:19,overcast clouds,0.0,0.0
325,Bathsheba,13.22,-59.52,78.8,74,40,13.87,BB,2020-02-24 23:03:19,scattered clouds,0.0,0.0
326,Palabuhanratu,-6.99,106.55,77.49,80,88,5.97,ID,2020-02-24 23:03:20,overcast clouds,0.0,0.0
327,Gushikawa,26.35,127.87,69.8,88,75,9.17,JP,2020-02-24 23:03:20,shower rain,0.0,0.0
328,Marienburg,54.04,19.03,39.99,87,20,4.7,PL,2020-02-24 23:03:20,few clouds,0.0,0.0
329,Eyl,7.98,49.82,76.37,80,90,17.27,SO,2020-02-24 23:03:20,overcast clouds,0.0,0.0
330,Matagami,49.75,-77.63,19.4,85,90,10.29,CA,2020-02-24 23:02:31,light snow,0.0,0.0
331,Kabompo,-13.59,24.2,66.02,98,100,3.76,ZM,2020-02-24 23:03:21,light rain,0.75,0.0
332,Sidi Qasim,34.22,-5.71,47.19,71,0,3.62,MA,2020-02-24 23:03:21,clear sky,0.0,0.0
333,Aquin,18.28,-73.4,75.2,80,53,5.68,HT,2020-02-24 23:03:21,light rain,1.19,0.0
334,Micheweni,-4.97,39.83,83.91,78,9,13.47,TZ,2020-02-24 23:03:21,clear sky,0.0,0.0
335,Hami,51.68,7.82,51.01,87,100,23.04,DE,2020-02-24 23:03:21,light rain,0.88,0.0
336,Buta,2.79,24.73,70.68,90,87,2.48,CD,2020-02-24 23:03:22,overcast clouds,0.0,0.0
337,Valkeala,60.94,26.8,30.2,58,37,10.29,FI,2020-02-24 23:03:22,scattered clouds,0.0,0.0
338,Hualmay,-11.1,-77.61,76.1,64,42,5.73,PE,2020-02-24 23:03:22,scattered clouds,0.0,0.0
339,Jalu,29.03,21.55,53.35,80,0,9.62,LY,2020-02-24 23:03:22,clear sky,0.0,0.0
340,Otofuke,42.99,143.2,15.8,92,40,1.12,JP,2020-02-24 23:03:22,fog,0.0,0.0
341,Muros,42.78,-9.06,57.0,93,90,5.82,ES,2020-02-24 23:03:23,overcast clouds,0.0,0.0
342,Madang,-5.22,145.8,81.5,79,73,3.11,PG,2020-02-24 23:03:23,light rain,0.44,0.0
343,Luanda,-8.84,13.23,80.6,83,75,6.93,AO,2020-02-24 23:03:23,broken clouds,0.0,0.0
344,Guerrero Negro,27.98,-114.06,66.6,53,0,16.69,MX,2020-02-24 23:03:24,clear sky,0.0,0.0
345,Souillac,-20.52,57.52,75.99,88,20,3.36,MU,2020-02-24 23:03:24,few clouds,0.0,0.0
346,Codrington,-38.27,141.97,63.12,84,90,10.56,AU,2020-02-24 23:03:24,overcast clouds,0.0,0.0
347,Merauke,-8.47,140.33,85.32,73,51,6.6,ID,2020-02-24 23:03:24,broken clouds,0.0,0.0
348,Carnarvon,53.14,-4.27,44.6,65,96,23.04,GB,2020-02-24 23:03:24,light rain,0.56,0.0
349,College,64.86,-147.8,3.0,83,1,1.83,US,2020-02-24 23:03:25,clear sky,0.0,0.0
350,Grand Gaube,-20.01,57.66,75.99,88,20,3.36,MU,2020-02-24 23:03:25,few clouds,0.0,0.0
351,Rawson,-43.3,-65.1,59.22,71,64,6.93,AR,2020-02-24 22:59:43,broken clouds,0.0,0.0
352,Berezovyy,51.67,135.7,8.2,77,44,3.51,RU,2020-02-24 23:03:25,scattered clouds,0.0,0.0
353,Haimen,28.68,121.44,64.0,92,25,1.01,CN,2020-02-24 23:03:25,scattered clouds,0.0,0.0
354,Palasa,18.77,84.42,69.1,88,8,4.05,IN,2020-02-24 23:03:26,clear sky,0.0,0.0
355,Lokachi,50.74,24.65,35.11,85,82,7.96,UA,2020-02-24 23:03:26,broken clouds,0.0,0.0
356,Khilok,51.37,110.47,-2.43,95,66,2.57,RU,2020-02-24 23:03:26,broken clouds,0.0,0.0
357,Lata,47.13,-117.0,45.0,51,1,18.34,US,2020-02-24 23:03:26,clear sky,0.0,0.0
358,Almonte,37.26,-6.52,57.99,76,0,2.24,ES,2020-02-24 23:03:26,clear sky,0.0,0.0
359,Japura,-0.32,102.35,73.98,97,94,1.34,ID,2020-02-24 23:03:27,overcast clouds,0.0,0.0
360,Jiuquan,39.74,98.52,26.87,37,11,2.35,CN,2020-02-24 23:03:27,few clouds,0.0,0.0
361,Nome,64.5,-165.41,6.8,71,1,10.29,US,2020-02-24 23:03:27,clear sky,0.0,0.0
362,Pimenta Bueno,-11.67,-61.19,74.46,96,40,2.64,BR,2020-02-24 23:03:27,scattered clouds,0.0,0.0
363,Biltine,14.53,20.92,62.51,22,0,16.82,TD,2020-02-24 23:03:27,clear sky,0.0,0.0
364,Santiago De Cao,-7.96,-79.24,75.2,83,40,8.05,PE,2020-02-24 23:03:28,mist,0.0,0.0
365,Flinders,-34.58,150.86,77.0,73,0,4.7,AU,2020-02-24 23:02:56,clear sky,0.0,0.0
366,Tonk,26.17,75.78,59.38,61,0,4.14,IN,2020-02-24 23:03:28,clear sky,0.0,0.0
367,Laguna,14.17,121.33,78.8,74,40,5.82,PH,2020-02-24 23:03:28,scattered clouds,0.0,0.0
368,Xining,36.62,101.77,23.65,54,0,5.39,CN,2020-02-24 23:03:29,clear sky,0.0,0.0
369,Gizo,30.01,31.21,53.6,87,45,4.7,EG,2020-02-24 23:03:29,scattered clouds,0.0,0.0
370,Valle De Allende,26.93,-105.4,66.25,10,100,10.98,MX,2020-02-24 23:03:29,overcast clouds,0.0,0.0
371,Nevsehir,38.92,34.67,46.4,70,75,8.05,TR,2020-02-24 23:02:02,broken clouds,0.0,0.0
372,Tallahassee,30.44,-84.28,69.8,77,90,16.11,US,2020-02-24 23:02:06,overcast clouds,0.0,0.0
373,Shimoda,34.67,138.95,52.0,45,84,8.77,JP,2020-02-24 23:02:46,broken clouds,0.0,0.0
374,Dondo,-19.61,34.74,73.13,73,100,10.56,MZ,2020-02-24 23:03:30,overcast clouds,0.0,0.0
375,Lasa,29.65,91.1,13.41,73,24,3.27,CN,2020-02-24 23:03:30,few clouds,0.0,0.0
376,Chara,19.75,-101.05,82.4,28,20,12.75,MX,2020-02-24 23:03:30,few clouds,0.0,0.0
377,Atherton,53.52,-2.49,44.6,75,92,13.87,GB,2020-02-24 23:03:30,light rain,0.25,0.0
378,Verkhnyaya Sinyachikha,57.98,61.67,22.82,93,75,7.54,RU,2020-02-24 23:03:31,broken clouds,0.0,0.0
379,Rio Gallegos,-51.62,-69.22,57.2,30,20,35.57,AR,2020-02-24 23:03:31,few clouds,0.0,0.0
380,Willowmore,-33.29,23.49,60.01,56,0,7.85,ZA,2020-02-24 23:03:31,clear sky,0.0,0.0
381,Caravelas,-17.71,-39.25,81.12,86,3,9.84,BR,2020-02-24 23:03:08,light rain,0.13,0.0
382,Vestmanna,62.16,-7.17,37.4,69,100,17.22,FO,2020-02-24 23:03:31,light snow,0.0,0.38
383,Fort-Shevchenko,44.51,50.26,45.48,79,95,17.09,KZ,2020-02-24 23:03:32,overcast clouds,0.0,0.0
384,Zhanaozen,43.3,52.8,42.82,82,71,16.67,KZ,2020-02-24 23:03:32,broken clouds,0.0,0.0
385,Ust-Ilimsk,58.0,102.66,6.64,96,91,5.3,RU,2020-02-24 23:03:32,overcast clouds,0.0,0.0
386,Beberibe,-4.18,-38.13,82.4,83,20,10.29,BR,2020-02-24 23:03:32,few clouds,0.0,0.0
387,Whitehorse,60.72,-135.05,10.99,46,40,10.29,CA,2020-02-24 23:03:33,scattered clouds,0.0,0.0
388,Sakakah,29.97,40.21,62.6,45,40,4.7,SA,2020-02-24 23:03:33,scattered clouds,0.0,0.0
389,Labuhan,3.73,98.67,77.0,100,20,2.24,ID,2020-02-24 23:03:33,mist,0.0,0.0
390,Erzin,36.96,36.2,55.99,100,56,6.93,TR,2020-02-24 23:03:33,broken clouds,0.0,0.0
391,Carquefou,47.3,-1.49,53.01,100,90,11.41,FR,2020-02-24 23:03:33,heavy intensity drizzle rain,0.0,0.0
392,Ancud,-41.87,-73.82,60.8,63,40,14.99,CL,2020-02-24 23:03:34,scattered clouds,0.0,0.0
393,Kutum,14.2,24.67,48.9,40,0,4.94,SD,2020-02-24 23:03:34,clear sky,0.0,0.0
394,Katobu,-4.94,122.53,80.8,86,74,3.56,ID,2020-02-24 23:03:34,broken clouds,0.0,0.0
395,Kavaratti,10.57,72.64,81.1,68,11,2.68,IN,2020-02-24 23:03:34,few clouds,0.0,0.0
396,Bourail,-21.57,165.48,82.67,54,100,5.21,NC,2020-02-24 23:03:34,overcast clouds,0.0,0.0
397,Nemuro,43.32,145.57,22.68,71,0,9.84,JP,2020-02-24 23:02:36,clear sky,0.0,0.0
398,Karratha,-20.74,116.85,86.47,63,80,10.49,AU,2020-02-24 23:03:35,broken clouds,0.0,0.0
399,Nouadhibou,20.93,-17.03,71.6,68,78,12.75,MR,2020-02-24 23:03:35,sand,0.0,0.0
400,Rivadavia,-34.84,-58.37,82.4,50,23,6.93,AR,2020-02-24 22:59:44,few clouds,0.0,0.0
401,Thompson,55.74,-97.86,6.8,55,20,9.17,CA,2020-02-24 23:03:03,few clouds,0.0,0.0
402,Yuci,37.68,112.73,24.8,100,90,2.24,CN,2020-02-24 23:03:36,fog,0.0,0.0
403,Svetlyy,54.67,20.13,33.8,82,40,4.47,RU,2020-02-24 23:03:36,scattered clouds,0.0,0.0
404,Skegness,53.14,0.34,44.6,81,17,19.46,GB,2020-02-24 23:03:36,few clouds,0.0,0.0
405,Superior,46.72,-92.1,41.0,38,1,3.36,US,2020-02-24 23:02:06,clear sky,0.0,0.0
406,Geraldton,-28.77,114.6,69.8,94,75,3.36,AU,2020-02-24 23:03:37,broken clouds,0.0,0.0
407,Meulaboh,4.14,96.13,81.88,76,80,5.44,ID,2020-02-24 23:03:37,light rain,0.19,0.0
408,Yar-Sale,66.83,70.83,22.96,93,100,24.18,RU,2020-02-24 23:03:37,light snow,0.0,0.81
409,Junction City,39.03,-96.83,51.01,57,90,12.75,US,2020-02-24 22:58:45,overcast clouds,0.0,0.0
410,Santa Marta,11.24,-74.2,91.4,49,20,9.17,CO,2020-02-24 23:00:08,few clouds,0.0,0.0
411,Waingapu,-9.66,120.26,83.5,79,25,11.48,ID,2020-02-24 22:59:15,scattered clouds,0.0,0.0
412,Warrington,53.39,-2.58,44.6,75,40,21.92,GB,2020-02-24 23:03:38,light intensity shower rain,0.0,0.0
413,Mount Isa,-20.73,139.5,78.8,94,75,11.41,AU,2020-02-24 23:02:22,broken clouds,0.0,0.0
414,Ozinki,51.18,49.68,34.16,98,100,14.12,RU,2020-02-24 23:03:39,light rain,0.63,0.0
415,Broken Hill,-31.95,141.43,77.0,53,0,10.29,AU,2020-02-24 23:03:39,clear sky,0.0,0.0
416,Polyarnyy,69.2,33.45,28.4,100,75,6.71,RU,2020-02-24 23:03:39,light shower snow,0.0,0.0
417,Chulman,56.85,124.91,12.38,92,100,9.01,RU,2020-02-24 23:03:40,light snow,0.0,0.31
418,Quang Ngai,15.12,108.8,68.5,82,53,8.9,VN,2020-02-24 23:02:57,broken clouds,0.0,0.0
419,Vanimo,-2.67,141.3,82.53,78,74,6.08,PG,2020-02-24 23:03:40,light rain,0.88,0.0
420,Houma,29.6,-90.72,73.99,88,90,11.41,US,2020-02-24 22:59:44,overcast clouds,0.0,0.0
421,Fairbanks,64.84,-147.72,3.0,83,1,1.32,US,2020-02-24 22:59:00,clear sky,0.0,0.0
422,Kiruna,67.86,20.23,10.4,72,17,5.82,SE,2020-02-24 23:03:41,few clouds,0.0,0.0
423,Grand River South East,-20.29,57.78,75.99,88,20,3.36,MU,2020-02-24 23:03:41,few clouds,0.0,0.0
424,Prince George,38.83,-76.85,55.99,32,90,3.36,US,2020-02-24 22:58:47,overcast clouds,0.0,0.0
425,Miura,35.14,139.62,52.0,66,90,12.37,JP,2020-02-24 23:03:41,overcast clouds,0.0,0.0
426,San Quintin,49.85,3.28,52.0,93,90,20.8,FR,2020-02-24 23:03:41,overcast clouds,0.0,0.0
427,Tautira,-17.73,-149.15,87.8,66,20,12.75,PF,2020-02-24 23:03:42,few clouds,0.0,0.0
428,Jawad,24.6,74.85,60.55,44,0,4.45,IN,2020-02-24 23:03:42,clear sky,0.0,0.0
429,Maebaru,33.55,130.2,55.4,35,100,14.99,JP,2020-02-24 23:03:42,overcast clouds,0.0,0.0
430,Along,28.17,94.77,49.33,91,32,5.26,IN,2020-02-24 23:03:42,light rain,0.44,0.0
431,Acapulco,16.86,-99.89,84.2,70,40,8.05,MX,2020-02-24 23:00:20,scattered clouds,0.0,0.0
432,Kirakira,-10.45,161.92,84.65,68,7,3.96,SB,2020-02-24 23:03:43,clear sky,0.0,0.0
433,San Carlos De Bariloche,-41.15,-71.31,57.2,50,40,26.4,AR,2020-02-24 23:03:43,scattered clouds,0.0,0.0
434,Ust-Kulom,61.69,53.69,29.26,95,100,9.64,RU,2020-02-24 23:03:44,light snow,0.0,0.38
435,Fuerte Olimpo,-21.04,-57.87,79.77,70,16,4.56,PY,2020-02-24 23:03:44,few clouds,0.0,0.0
436,Marabba,12.35,32.18,67.89,20,17,14.2,SD,2020-02-24 23:03:44,few clouds,0.0,0.0
437,Kamenskoye,48.51,34.6,35.6,80,75,17.9,UA,2020-02-24 23:03:44,broken clouds,0.0,0.0
438,Tarudant,30.47,-8.88,69.8,35,75,17.22,MA,2020-02-24 23:03:45,broken clouds,0.0,0.0
439,Pleasant Grove,40.36,-111.74,41.0,48,40,10.29,US,2020-02-24 23:03:45,scattered clouds,0.0,0.0
440,Aripuana,-9.17,-60.63,75.34,95,94,1.1,BR,2020-02-24 23:03:45,light rain,2.12,0.0
441,At-Bashi,41.17,75.81,4.19,68,99,2.89,KG,2020-02-24 23:03:45,overcast clouds,0.0,0.0
442,Northam,33.87,-118.0,78.01,33,1,9.17,US,2020-02-24 23:01:41,clear sky,0.0,0.0
443,Moroni,-34.65,-58.62,82.4,50,0,6.93,AR,2020-02-24 23:03:46,clear sky,0.0,0.0
444,Hit,33.64,42.83,62.2,53,100,13.51,IQ,2020-02-24 23:03:46,overcast clouds,0.0,0.0
445,Coyutla,20.25,-97.65,87.8,70,5,5.82,MX,2020-02-24 23:03:46,clear sky,0.0,0.0
446,Quzhou,28.96,118.87,61.63,82,63,0.92,CN,2020-02-24 23:03:46,broken clouds,0.0,0.0
447,Tura,47.38,0.68,50.0,93,90,11.41,FR,2020-02-24 23:03:46,mist,0.0,0.0
448,Sikasso,10.92,-7.0,80.28,13,100,7.05,ML,2020-02-24 23:03:47,overcast clouds,0.0,0.0
449,Ende,-8.84,121.66,82.65,77,41,6.2,ID,2020-02-24 23:03:47,scattered clouds,0.0,0.0
450,Saryshagan,46.12,73.62,21.11,84,98,11.03,KZ,2020-02-24 23:03:47,overcast clouds,0.0,0.0
451,Ugoofaaru,5.67,73.0,82.31,74,18,17.02,MV,2020-02-24 23:03:47,few clouds,0.0,0.0
452,Sioux Lookout,50.1,-91.92,33.8,92,20,6.93,CA,2020-02-24 23:03:47,few clouds,0.0,0.0
453,Reo,12.32,-2.47,78.31,13,100,11.7,BF,2020-02-24 23:03:48,overcast clouds,0.0,0.0
454,Hamilton,39.18,-84.53,43.0,87,90,10.29,US,2020-02-24 23:03:48,light rain,0.0,0.0
455,Oranjemund,-28.55,16.43,73.65,42,0,6.89,NA,2020-02-24 23:03:48,clear sky,0.0,0.0
456,Alice Springs,-23.7,133.88,80.6,44,100,16.11,AU,2020-02-24 23:03:48,overcast clouds,0.0,0.0
457,Hasaki,35.73,140.83,41.0,93,75,1.12,JP,2020-02-24 23:03:48,broken clouds,0.0,0.0
458,Sabzevar,36.21,57.68,50.25,82,81,4.74,IR,2020-02-24 23:03:49,light rain,2.13,0.0
459,Uvat,59.14,68.9,18.12,88,100,14.7,RU,2020-02-24 23:03:49,overcast clouds,0.0,0.0
460,Riyadh,24.69,46.72,73.4,31,72,5.82,SA,2020-02-24 23:02:04,broken clouds,0.0,0.0
461,Saint Anthony,45.02,-93.22,42.8,44,1,9.17,US,2020-02-24 23:03:49,clear sky,0.0,0.0
462,Chinhoyi,-17.37,30.2,63.46,86,100,6.69,ZW,2020-02-24 23:03:50,light rain,0.12,0.0
463,Burica,8.03,-82.87,86.0,62,40,9.17,PA,2020-02-24 23:03:50,scattered clouds,0.0,0.0
464,Parkes,-33.13,148.18,81.0,53,34,1.01,AU,2020-02-24 23:03:50,scattered clouds,0.0,0.0
465,Bud,47.5,19.04,46.0,60,90,4.7,HU,2020-02-24 23:01:46,overcast clouds,0.0,0.0
466,Tasbuget,44.77,65.55,32.0,70,12,4.47,KZ,2020-02-24 23:03:50,mist,0.0,0.0
467,Erenhot,43.65,111.98,16.45,94,97,8.23,CN,2020-02-24 23:03:51,overcast clouds,0.0,0.0
468,Fort Morgan,40.25,-103.8,39.2,40,75,27.51,US,2020-02-24 23:03:51,broken clouds,0.0,0.0
469,Belmonte,-7.86,-38.76,77.59,75,58,7.83,BR,2020-02-24 23:03:51,light rain,0.19,0.0
470,Ballybofey,54.8,-7.78,35.51,84,76,12.17,IE,2020-02-24 23:03:51,light snow,0.0,0.75
471,Sibolga,1.74,98.78,71.89,91,95,3.51,ID,2020-02-24 23:02:36,overcast clouds,0.0,0.0
472,Isangel,-19.55,169.27,82.4,74,40,10.56,VU,2020-02-24 23:03:52,scattered clouds,0.0,0.0
473,Mandurah,-32.55,115.7,73.99,78,58,10.29,AU,2020-02-24 23:03:52,broken clouds,0.0,0.0
474,Blyznyuky,48.86,36.56,34.05,80,100,23.15,UA,2020-02-24 23:00:35,light snow,0.0,0.63
475,Paso De Patria,-27.25,-58.55,84.2,48,0,4.7,AR,2020-02-24 23:03:52,clear sky,0.0,0.0
476,Excelsior Springs,39.34,-94.23,43.0,86,90,12.75,US,2020-02-24 23:03:52,light rain,0.0,0.0
477,Baherden,38.44,57.43,59.88,44,87,5.28,TM,2020-02-24 23:03:53,overcast clouds,0.0,0.0
478,Mackenzie,-42.82,173.27,60.96,83,9,15.61,NZ,2020-02-24 23:03:53,clear sky,0.0,0.0
479,Macklin,52.33,-109.93,16.77,94,76,5.57,CA,2020-02-24 23:00:10,broken clouds,0.0,0.0
480,Kungurtug,50.6,97.52,0.07,88,84,4.16,RU,2020-02-24 23:03:53,broken clouds,0.0,0.0
481,Port Hedland,-20.32,118.57,82.4,88,43,5.82,AU,2020-02-24 23:03:53,scattered clouds,0.0,0.0
482,Gashua,12.87,11.05,65.88,24,0,11.41,NG,2020-02-24 23:03:54,clear sky,0.0,0.0
483,Pozo Colorado,-23.49,-58.8,82.06,55,47,5.59,PY,2020-02-24 23:03:54,scattered clouds,0.0,0.0
484,Shebalino,51.29,85.68,8.91,91,100,3.27,RU,2020-02-24 23:03:54,overcast clouds,0.0,0.0
485,General Roca,-39.03,-67.58,77.0,22,0,16.11,AR,2020-02-24 23:03:54,clear sky,0.0,0.0
486,Takhtamygda,54.1,123.57,2.59,88,38,1.54,RU,2020-02-24 23:03:54,scattered clouds,0.0,0.0
487,Porto Torres,40.84,8.4,55.4,93,20,5.82,IT,2020-02-24 23:03:55,few clouds,0.0,0.0
488,Safwah,26.65,49.95,71.6,56,93,13.87,SA,2020-02-24 23:03:55,overcast clouds,0.0,0.0
489,Grindavik,63.84,-22.43,28.4,86,75,9.17,IS,2020-02-24 23:03:55,shower rain,0.0,0.0
490,Yertsevo,60.8,40.09,23.79,93,88,6.69,RU,2020-02-24 23:03:55,overcast clouds,0.0,0.0
491,Qianan,44.99,124.06,12.87,92,99,6.71,CN,2020-02-24 23:03:55,overcast clouds,0.0,0.0
492,Anadyr,64.75,177.48,-13.0,69,75,11.18,RU,2020-02-24 23:03:56,broken clouds,0.0,0.0
493,Rosarito,32.33,-117.03,73.4,63,20,13.87,MX,2020-02-24 23:03:56,few clouds,0.0,0.0
494,Adrar,20.5,-10.07,73.18,12,91,15.64,MR,2020-02-24 23:02:07,overcast clouds,0.0,0.0
495,Toliary,-23.35,43.67,78.21,79,94,25.41,MG,2020-02-24 23:03:56,overcast clouds,0.0,0.0
496,Shar,24.36,56.75,73.4,78,61,2.24,OM,2020-02-24 23:03:56,broken clouds,0.0,0.0
497,Dunmore East,52.15,-6.99,42.01,83,22,3.0,IE,2020-02-24 23:03:57,few clouds,0.0,0.0
498,Kulykivka,51.37,31.65,31.64,80,0,11.16,UA,2020-02-24 23:03:57,clear sky,0.0,0.0
499,Magistralnyy,56.17,107.45,1.9,92,98,2.26,RU,2020-02-24 23:02:20,overcast clouds,0.0,0.0
500,Dingle,11.0,122.67,75.88,84,95,12.39,PH,2020-02-24 23:03:58,light rain,0.25,0.0
501,Mega,4.05,38.3,69.42,37,70,6.73,ET,2020-02-24 23:03:54,broken clouds,0.0,0.0
502,Bogorodskoye,56.1,43.52,32.0,94,40,4.47,RU,2020-02-24 23:03:58,scattered clouds,0.0,0.0
503,Mbuji-Mayi,-6.15,23.6,71.35,90,100,2.73,CD,2020-02-24 23:03:58,overcast clouds,0.0,0.0
504,Umm Lajj,25.02,37.27,60.33,57,79,16.08,SA,2020-02-24 23:03:58,broken clouds,0.0,0.0
505,Antonina,-25.43,-48.71,71.6,88,40,3.36,BR,2020-02-24 23:03:59,scattered clouds,0.0,0.0
506,Zhezkazgan,47.78,67.77,11.93,94,32,5.37,KZ,2020-02-24 23:03:59,scattered clouds,0.0,0.0
507,San Patricio,28.02,-97.52,77.0,43,1,11.41,US,2020-02-24 23:03:59,clear sky,0.0,0.0
508,Tak,16.58,98.83,64.94,45,50,2.55,TH,2020-02-24 23:03:59,scattered clouds,0.0,0.0
509,Ruteng,-8.61,120.47,76.86,74,7,1.95,ID,2020-02-24 23:03:59,clear sky,0.0,0.0
510,Wucheng,29.6,118.17,59.0,92,73,3.18,CN,2020-02-24 23:04:00,broken clouds,0.0,0.0
511,Mollendo,-17.02,-72.01,70.14,89,66,4.41,PE,2020-02-24 23:04:00,broken clouds,0.0,0.0
512,Itanagar,27.1,93.62,57.06,74,0,3.33,IN,2020-02-24 23:04:00,light rain,0.5,0.0
513,Ust-Tsilma,65.44,52.15,26.94,92,99,7.27,RU,2020-02-24 23:04:00,overcast clouds,0.0,0.0
514,Progreso,15.4,-87.8,82.99,74,5,6.93,HN,2020-02-24 23:02:48,clear sky,0.0,0.0
515,Troitsk,54.1,61.58,17.76,94,79,7.92,RU,2020-02-24 23:04:01,broken clouds,0.0,0.0
516,Porto Santo,33.07,-16.34,64.4,88,20,11.41,PT,2020-02-24 23:04:01,few clouds,0.0,0.0
517,Valparaiso,-33.04,-71.63,66.2,59,46,6.93,CL,2020-02-24 23:04:01,scattered clouds,0.0,0.0
518,Sovetskaya,44.78,41.17,37.0,9,98,17.0,RU,2020-02-24 23:04:01,light snow,0.0,0.13
519,Hobyo,5.35,48.53,78.24,75,99,15.3,SO,2020-02-24 23:04:02,overcast clouds,0.0,0.0
520,Dunedin,-45.87,170.5,71.01,50,89,1.01,NZ,2020-02-24 23:04:02,overcast clouds,0.0,0.0
521,Marsaxlokk,35.84,14.54,57.0,93,20,8.05,MT,2020-02-24 23:04:02,few clouds,0.0,0.0
522,Gumdag,39.21,54.59,54.7,61,78,8.05,TM,2020-02-24 23:04:02,broken clouds,0.0,0.0
523,Alamogordo,32.9,-105.96,66.0,23,1,8.05,US,2020-02-24 23:01:41,clear sky,0.0,0.0
524,Le Port,-20.94,55.29,78.8,78,38,5.82,RE,2020-02-24 23:04:03,scattered clouds,0.0,0.0
525,Cosala,24.41,-106.69,73.99,71,100,3.0,MX,2020-02-24 23:04:03,overcast clouds,0.0,0.0
526,Wad Madani,14.4,33.52,65.52,21,0,13.38,SD,2020-02-24 23:04:03,clear sky,0.0,0.0
527,Miragoane,18.44,-73.09,78.58,73,41,5.41,HT,2020-02-24 23:04:03,light rain,1.63,0.0
528,Tarauaca,-8.16,-70.77,77.76,78,51,3.4,BR,2020-02-24 23:00:06,broken clouds,0.0,0.0
529,Dzhebariki-Khaya,62.22,135.8,-2.81,95,100,4.59,RU,2020-02-24 23:04:04,light snow,0.0,0.31
530,Matamoros,25.88,-97.5,86.0,54,75,13.87,MX,2020-02-24 23:04:04,broken clouds,0.0,0.0
531,Marsa Matruh,31.35,27.25,51.8,81,40,4.7,EG,2020-02-24 23:04:04,scattered clouds,0.0,0.0
532,Ayabaca,-4.64,-79.71,60.19,98,93,2.77,PE,2020-02-24 22:59:05,light rain,2.31,0.0
533,Luena,-11.78,19.92,64.45,97,100,4.34,AO,2020-02-24 23:04:04,moderate rain,3.31,0.0
534,Tha Bo,17.85,102.58,62.6,88,2,2.24,TH,2020-02-24 23:04:05,clear sky,0.0,0.0
535,Jujuy,-24.19,-65.3,77.0,61,20,6.93,AR,2020-02-24 23:00:37,few clouds,0.0,0.0
536,Shahabad,25.57,84.67,68.0,68,40,4.7,IN,2020-02-24 23:04:05,haze,0.0,0.0
537,Qaqortoq,60.72,-46.03,12.2,36,19,4.7,GL,2020-02-24 23:04:06,few clouds,0.0,0.0
538,Paradise,36.1,-115.15,69.01,28,20,8.05,US,2020-02-24 23:03:37,few clouds,0.0,0.0
539,Nagornskiy,58.77,57.55,28.0,93,100,3.0,RU,2020-02-24 23:04:06,light snow,0.0,0.56
540,Nanortalik,60.14,-45.24,20.16,54,80,34.02,GL,2020-02-24 23:04:06,broken clouds,0.0,0.0
541,Sola,37.57,126.98,44.6,100,90,3.36,KR,2020-02-24 23:02:17,light rain,0.0,0.0
542,Wajima,37.4,136.9,48.09,77,94,12.62,JP,2020-02-24 23:04:07,overcast clouds,0.0,0.0
543,Malysheva,57.12,61.4,24.8,85,75,6.71,RU,2020-02-24 23:04:07,broken clouds,0.0,0.0
544,Moyo,3.66,31.72,78.37,37,74,2.24,UG,2020-02-24 23:04:07,broken clouds,0.0,0.0
545,Ust-Kuyga,70.02,135.6,-15.66,89,51,10.94,RU,2020-02-24 23:04:07,broken clouds,0.0,0.0
546,Marquette,46.53,-87.63,35.6,69,5,14.99,US,2020-02-24 23:04:08,clear sky,0.0,0.0
547,Krasnorechenskiy,44.63,135.35,18.82,81,0,7.87,RU,2020-02-24 23:04:08,clear sky,0.0,0.0
548,Mayskiy,47.69,40.1,37.4,100,75,17.9,RU,2020-02-24 23:04:08,broken clouds,0.0,0.0
549,Kang,49.19,-0.36,50.0,100,90,13.87,FR,2020-02-24 23:04:08,light intensity drizzle,0.0,0.0
550,Sao Filipe,-6.66,-69.87,75.9,93,99,3.11,BR,2020-02-24 23:04:08,light rain,0.94,0.0
551,West Bay,19.37,-81.42,82.4,69,20,10.29,KY,2020-02-24 23:04:09,few clouds,0.0,0.0
552,Two Rivers,44.15,-87.57,37.4,69,1,6.93,US,2020-02-24 23:04:09,clear sky,0.0,0.0
553,Mormugao,15.4,73.8,77.0,88,51,2.24,IN,2020-02-24 23:04:09,mist,0.0,0.0
554,Axim,4.87,-2.24,79.02,91,70,3.83,GH,2020-02-24 23:04:09,broken clouds,0.0,0.0
555,Melilla,35.29,-2.94,55.4,87,0,3.36,ES,2020-02-24 23:04:09,clear sky,0.0,0.0
556,Sol-Iletsk,51.16,54.99,31.66,98,100,9.73,RU,2020-02-24 23:04:10,light snow,0.0,1.0
557,Rabo De Peixe,37.8,-25.58,57.2,87,20,6.93,PT,2020-02-24 23:04:10,few clouds,0.0,0.0
558,Znamenskoye,48.97,140.29,12.43,84,97,8.25,RU,2020-02-24 23:04:10,overcast clouds,0.0,0.0
559,Srednekolymsk,67.45,153.68,-18.51,96,90,0.38,RU,2020-02-24 23:04:10,overcast clouds,0.0,0.0
560,Magdagachi,53.45,125.8,7.18,86,28,5.08,RU,2020-02-24 23:04:11,scattered clouds,0.0,0.0
561,Sabha,27.04,14.43,53.76,32,0,8.23,LY,2020-02-24 23:04:11,clear sky,0.0,0.0
562,Kiama,-34.68,150.87,77.0,73,0,4.7,AU,2020-02-24 23:04:11,clear sky,0.0,0.0
563,Ambulu,-8.35,113.61,80.53,77,100,5.37,ID,2020-02-24 23:04:11,overcast clouds,0.0,0.0
564,Gudari,19.35,83.78,63.3,93,0,0.45,IN,2020-02-24 23:04:11,clear sky,0.0,0.0
565,Maldonado,-34.67,-54.92,82.4,48,0,10.29,UY,2020-02-24 23:03:26,clear sky,0.0,0.0
566,Belaya Gora,68.53,146.42,-19.46,96,11,6.17,RU,2020-02-24 23:04:12,few clouds,0.0,0.0
567,Linxia,35.6,103.21,30.85,52,0,1.1,CN,2020-02-24 23:04:12,clear sky,0.0,0.0
568,Morgan City,29.7,-91.21,73.0,83,90,7.7,US,2020-02-24 23:04:12,overcast clouds,0.0,0.0
569,Nata,8.33,-80.52,87.8,43,4,14.99,PA,2020-02-24 23:04:12,clear sky,0.0,0.0
570,Rybinsk,58.04,38.84,27.16,94,47,6.76,RU,2020-02-24 23:04:13,scattered clouds,0.0,0.0
571,Yenagoa,4.92,6.26,79.45,84,0,2.64,NG,2020-02-24 23:04:13,clear sky,0.0,0.0
572,Los Amates,15.27,-89.1,77.0,72,1,5.77,GT,2020-02-24 23:04:13,clear sky,0.0,0.0
573,Dhidhdhoo,6.88,73.1,81.84,76,28,11.27,MV,2020-02-24 23:04:13,light rain,0.25,0.0
574,Langres,47.83,5.33,51.8,62,31,9.17,FR,2020-02-24 23:04:14,scattered clouds,0.0,0.0
575,Sao Felix Do Xingu,-6.64,-51.99,74.21,94,79,1.79,BR,2020-02-24 23:04:14,moderate rain,3.75,0.0
576,Yangambi,0.81,24.43,69.98,94,81,4.85,CD,2020-02-24 23:04:14,broken clouds,0.0,0.0
577,Paamiut,61.99,-49.67,6.3,77,95,10.11,GL,2020-02-24 23:04:14,light snow,0.0,0.31
578,Kunnamangalam,11.3,75.88,77.0,78,20,4.7,IN,2020-02-24 23:04:15,haze,0.0,0.0
579,Emba,48.83,58.14,33.26,98,100,5.5,KZ,2020-02-24 23:04:15,overcast clouds,0.0,0.0
580,Batken,39.83,71.0,35.31,65,99,5.86,KG,2020-02-24 23:04:15,overcast clouds,0.0,0.0
581,Boende,-0.22,20.87,73.27,94,100,2.84,CD,2020-02-24 23:04:15,overcast clouds,0.0,0.0
582,Severobaykalsk,55.65,109.32,4.55,79,28,3.51,RU,2020-02-24 23:04:15,scattered clouds,0.0,0.0
583,Atar,20.52,-13.05,77.88,14,63,20.36,MR,2020-02-24 23:04:16,broken clouds,0.0,0.0
584,Angoche,-16.23,39.91,74.91,96,100,5.79,MZ,2020-02-24 23:04:16,overcast clouds,0.0,0.0
585,Tacuarembo,-31.73,-55.98,68.32,56,17,4.81,UY,2020-02-24 23:04:16,few clouds,0.0,0.0
586,Gainesville,29.65,-82.32,75.2,40,1,10.29,US,2020-02-24 23:00:12,clear sky,0.0,0.0
587,Luis Correia,-2.88,-41.67,76.48,94,47,4.29,BR,2020-02-24 23:04:16,light rain,0.31,0.0
588,Astoria,46.19,-123.83,48.0,70,90,9.17,US,2020-02-24 23:04:17,overcast clouds,0.0,0.0
589,Wuwei,31.28,117.9,61.68,94,93,8.03,CN,2020-02-24 23:04:17,moderate rain,3.56,0.0
590,Sorong,-0.88,131.25,82.8,76,100,4.32,ID,2020-02-24 23:04:15,overcast clouds,0.0,0.0
591,Buritis,-15.62,-46.42,72.3,88,100,2.1,BR,2020-02-24 23:00:13,light rain,1.94,0.0
592,Jijiga,9.35,42.8,59.9,59,88,1.54,ET,2020-02-24 23:04:17,overcast clouds,0.0,0.0
593,Cockburn Town,21.46,-71.14,74.79,72,29,18.86,TC,2020-02-24 23:00:07,light rain,0.13,0.0
594,Sao Francisco De Paula,-31.77,-52.34,80.6,57,20,14.99,BR,2020-02-24 23:04:18,few clouds,0.0,0.0
595,Weihai,37.5,122.11,42.39,97,100,17.11,CN,2020-02-24 23:04:18,light rain,1.31,0.0
596,Nioro,13.75,-15.8,89.6,24,92,6.93,SN,2020-02-24 23:04:18,overcast clouds,0.0,0.0
597,Sorkjosen,69.8,20.93,31.08,58,100,22.41,NO,2020-02-24 23:04:18,light snow,0.0,0.75
598,Winnemucca,40.97,-117.74,51.8,15,1,12.75,US,2020-02-24 23:04:19,clear sky,0.0,0.0
599,Goderich,43.75,-81.72,39.99,76,100,4.0,CA,2020-02-24 23:00:34,overcast clouds,0.0,0.0
600,Westport,39.1,-94.58,43.0,93,90,17.22,US,2020-02-24 23:01:39,light rain,0.0,0.0
601,Dukat,62.55,155.55,-14.08,94,10,2.42,RU,2020-02-24 23:04:19,clear sky,0.0,0.0
602,Waddan,29.16,16.14,52.43,44,0,1.63,LY,2020-02-24 23:04:20,clear sky,0.0,0.0
603,Elbistan,38.21,37.2,33.96,96,88,5.97,TR,2020-02-24 23:04:20,light rain,0.19,0.0
604,Jumla,29.27,82.18,28.62,93,100,2.93,NP,2020-02-24 23:04:20,snow,0.0,2.69
605,Sambava,-14.27,50.17,74.75,98,99,2.19,MG,2020-02-24 23:04:20,overcast clouds,0.0,0.0
606,Salta,-24.79,-65.41,77.0,60,75,11.41,AR,2020-02-24 23:04:20,broken clouds,0.0,0.0
607,Kendari,-3.94,122.5,80.35,89,62,1.79,ID,2020-02-24 23:04:21,light rain,0.44,0.0
